WellReport,TypeOfWork,ProposedUs,OwnerName2,County2,WellAddres,CoordDDLat,CoordDDLon,GridNumber,DrillingSt,DrillingEn,Year,BoreholeDe,DrillerSig,DrillerCom,LicenseNum,PluggingRe
557184,New Well,Public Supply,Pecan Valley Ranch & Farms LLC,Kimble,"6720 W. Ranch Rd 1674, Junction, 76849",30.514235,-99.883812,56-25-9,8/11/2020,8/12/2020,2020,25,"ALLISON, ROBERT MICHAEL",Allison Well Service,54624,
494438,New Well,Public Supply,AQUA TEXAS INC,Kimble,"283 N KC 350, LONDON, 76854",30.671775,-99.579853,56-20-5,9/29/2018,9/30/2018,2018,120,Canon Kutscher,"Hydro Resources Mid-Continent, Inc.",58773,
97976,New Well,Public Supply,"South Llano Farms,LTD",Kimble,,30.444722,-99.820555,56-34-5,10/10/2006,10/11/2006,2006,65,Chris Lange,Lange Drilling Co.,54577,
97975,New Well,Public Supply,"South Llano Farms,LTD",Kimble,,30.444722,-99.823055,56-34-5,9/29/2006,9/30/2006,2006,65,Chris Lange,Lange Drilling Co.,54577,34717
493207,New Well,Public Supply,Streeter TX LLC,Mason,"982 Rocky Hills Lane, Mason, 76856",30.764691,-99.37754,56-13-9,9/28/2018,9/28/2018,2018,97,Zane Magill,"Magill Drilling & Water Well Service, LLC",4168,
46825,Reconditioning,Public Supply,Llano River Family Park,Mason,".1 mi. E from Llano River Bridge on 87;  well on tract 1000' S from Llano River,",30.660278,-99.107223,56-24-7,8/24/2004,8/24/2004,2004,120,Lynn R Hoy,Virdell Drilling Inc.,4071,
46823,Reconditioning,Public Supply,Llano River Family Park,Mason,".1 mi. E from Llano River Bridge on 87;  well on tract 1000' S from Llano River,",30.660001,-99.107223,56-24-7,8/24/2004,8/24/2004,2004,80,Lynn R Hoy,Virdell Drilling Inc.,4071,
43752,New Well,Public Supply,Llano River Family Park,Mason,".1 mi. E from Llano River Bridge on 87;  Well on tract 1000' S from Llano River,",30.660001,-99.107223,56-24-7,8/24/2004,8/24/2004,2004,80,Lynn R Hoy,Virdell Drilling Inc.,4071,
43749,New Well,Public Supply,Llano River Family Park,Mason,".1 mi E from Llano River Bridge on 87; well on tract 1000' S from Llano River,",30.660278,-99.107223,56-24-7,8/24/2004,8/24/2004,2004,120,Lynn R Hoy,Virdell Drilling Inc.,4071,
39921,New Well,Public Supply,Dennis Masterson,Mason,".1 mi E from Llano River Bridge on 87; Well on tract 1000' S from Llano River,",30.660278,-99.107223,56-24-7,6/28/2004,6/28/2004,2004,120,Lynn R Hoy,Virdell Drilling Inc.,4071,109575
36158,New Well,Public Supply,Dennis Masterson,Mason,".1 mi E from Llano River Bridge on 87; well on tract 1000' S from Llano River,",30.660001,-99.107223,56-24-7,4/19/2004,4/19/2004,2004,80,Lynn R Hoy,Virdell Drilling Inc.,4071,109180
416416,New Well,Public Supply,City of San Angelo,McCulloch,"11595 west fm 2028, Melvin, 76858",31.043611,-99.566111,42-60-5,8/3/2015,2/5/2016,2016,2570,Neil Darrol Rollie,ALSAY INC.,2048,
395411,New Well,Public Supply,CITY OF SAN ANGELO,McCulloch,"11595 W FM 2028, MELVIN, 76858",31.044722,-99.591667,42-60-4,5/21/2014,5/12/2015,2015,2790,Neil Darrol Rollie,ALSAY INC.,2048,
390532,New Well,Public Supply,CITY OF SAN ANGELO,McCulloch,"11595 W FM 2028, MELVIN, 76858",31.03,-99.574167,42-60-8,7/5/2014,1/23/2015,2015,2210,Neil Darrol Rollie,ALSAY INC.,2048,
389423,New Well,Public Supply,CITY OF SAN ANGELO,McCulloch,"11595 W FM 2028, MELVIN, 76858",31.030278,-99.591945,42-60-7,12/13/2013,2/10/2015,2015,2420,Neil Darrol Rollie,ALSAY INC.,2048,
374862,New Well,Public Supply,CITY OF SAN ANGELO,Menard,"11595 WEST FM 2028, MELVIN, 76858",31.045834,-99.625555,42-59-6,10/24/2013,9/1/2014,2014,3017,Neil Darrol Rollie,ALSAY INCORPORATED,2048,
372008,New Well,Public Supply,CITY OF SAN ANGELO,Menard,"11595 WEST FM 2028, MELVIN, 76858",31.030555,-99.608889,42-60-7,11/4/2013,7/28/2014,2014,2576,Neil Darrol Rollie,ALSAY INCORPORATED,2048,
71865,New Well,Public Supply,YFZ Land LLC,Schleicher,,30.928611,-100.542778,55-04-5,11/21/2005,12/6/2005,2005,400,William Ray Lange,Lange Drilling Co Inc,1524,
483864,New Well,Public Supply,Permian Frac Sand,McCulloch,"Hwy 71, Voca, 76887",30.971308,-99.113767,56-08-1,6/20/2018,6/20/2018,2018,140,Justin Moore,"Associated Well Services, Inc.",59346,
374760,New Well,Public Supply,Premier Silica,McCulloch,"Premier, East Site,",31.001112,-99.176389,42-63-8,9/11/2014,9/12/2014,2014,295,James C Virdell,Virdell Drilling Inc.,59342,
374745,New Well,Public Supply,Premier Silica,McCulloch,"Voca, West Sand Plant Offices,",30.975833,-99.203612,56-07-2,9/6/2014,9/8/2014,2014,270,James C Virdell,Virdell Drilling Inc.,59342,
374741,New Well,Public Supply,Premier Silica,McCulloch,"Voca, North Sand Plant,",30.991945,-99.1725,56-07-2,9/4/2014,9/6/2014,2014,151,James C Virdell,Virdell Drilling Inc.,59342,
357332,New Well,Public Supply,Fairmount Minerals,McCulloch,"300 Private Road 685, Voca, 76887",30.969444,-99.211389,56-07-1,3/17/2014,3/19/2014,2014,235,Frank A Glass,Western Water Wells,1313,
540544,Reconditioning,Public Supply,City of Mertzon,Irion,"Off Hwy. 67 in the city of Mertzon, Mertzon, 76941",31.264556,-100.815972,43-42-8,1/29/2020,1/29/2020,2020,110,Justin C Abel,Abel Water Systems,59930,
417814,New Well,Public Supply,"Discovery Natural Resources, LLC",Irion,"23770 State HWY 163 N, Barnhart,",31.297708,-101.161336,44-47-6,2/24/2016,2/25/2016,2016,420,Casey Bob Hutto,Case Drilling and Pump Service,58880,
413041,New Well,Public Supply,CITY OF MERTZON / IRION COUNTY,Irion,"31 15 21.75 / -100 48 52.37, MERTZON,",31.256042,-100.814547,43-42-8,10/28/2015,11/3/2015,2015,420,Derek Latzel,"D. LATZEL DRILLING, LLC",58962,
365940,New Well,Public Supply,City of Barnhart,Irion,"Barnhart, 76930",31.126389,-101.172778,44-55-8,5/19/2014,5/28/2014,2014,447,Russell Southerland,West Texas Water Well Service,2713,
89521,New Well,Public Supply,Dove Creek Partners,Irion,"County Road 311, Mertzon, Texas,",31.184167,-100.735556,43-51-4,7/15/2006,7/23/2006,2006,43,Lee Foster Gebbert,"Geoprojects International,,Inc.",2525,
595709,New Well,Public Supply,CITY OF ANDREWS,Andrews,"DCP WELL FIELD, ANDREWS, 79714",32.479324,-102.605039,27-36-1,5/21/2021,6/12/2021,2021,305,Bryan A Mehlhoff,"MARK'S WATER WELL SERVICE, INC",59300,
595707,New Well,Public Supply,CITY OF ANDREWS,Andrews,"DCP WELL FIELD, ANDREWS, 79714",32.483917,-102.601739,27-36-1,9/27/2021,9/30/2021,2021,305,Bryan A Mehlhoff,"MARK'S WATER WELL SERVICE, INC",59300,
459463,New Well,Public Supply,City of Andrews,Andrews,"Hwy 385 & NW 7000, Andrews, 79714",32.480111,-102.608056,27-36-1,6/19/2017,6/30/2017,2017,300,Dara Crass,Layne,59388,
459462,New Well,Public Supply,City of Andrews,Andrews,"Hwy 385 & NW 7000, Andrews, 79714",32.481333,-102.609111,27-36-1,7/1/2017,7/11/2017,2017,300,Dara Crass,Layne,59388,
430465,New Well,Public Supply,John C. Ford,Andrews,"5735 SW7000 From Intersection Hwy 181 and SW7000, Coyote Corner, go east on SW7000 for 2.6 mi. Turn north for 190 ft. to site., Andrews, 79714",32.1182,-102.680304,27-59-2,7/11/2016,7/13/2016,2016,160,Edward Bryan,Straub Corporation,58165,
358524,New Well,Public Supply,"Chevron USA, Inc.",Andrews,"3700 S.E. Co. Rd. 8000, Andrews, 79714",32.196945,-102.254445,27-54-6,3/11/2014,3/11/2014,2014,100,Rory B Roach,West Texas Water Well Service,54815,
183476,New Well,Public Supply,Waste Control Specialists,Andrews,"9998 W. State Hwy. 176, Andrews, 79714",32.435834,-103.037778,26-40-6,5/26/2009,5/26/2009,2009,60,David Gann,West Texas Water Well Service,4855,192502
177053,New Well,Public Supply,City of Andrews,Andrews,"Andrews,",32.479722,-102.576111,27-36-2,4/17/2009,4/29/2009,2009,200,David Gann,West Texas Water Well Service,4855,
175704,New Well,Public Supply,City of Andrews,Andrews,"Andrews,",32.468889,-102.578333,27-36-2,3/23/2009,4/3/2009,2009,205,David Gann,West Texas Water Well Service,4855,
175700,New Well,Public Supply,City of Andrews,Andrews,"Andrews, 79714",32.479722,-102.576111,27-36-2,4/6/2009,4/15/2009,2009,200,David Gann,West Texas Water Well Service,4855,
144126,New Well,Public Supply,CITY OF ANDREWS,Andrews,"NE 1ST LOGSDON, ANDREWS,",32.466112,-102.593056,27-36-1,11/27/2007,11/29/2007,2007,220,Victor M Acosta Jr,ACOSTA DRILLING CO.,56002,
550300,New Well,Public Supply,"Stephns Ranch Wind Energy,LLC",Borden,"2186 CR 131, Plains, 79351",32.896611,-101.657939,28-03-9,6/9/2020,6/10/2020,2020,70,Bill M Dubose Jr,"Dubose Drilling, Inc",3161,201313
370535,New Well,Public Supply,U & F WSC City of Snyder,Scurry,"Rural, Snyder, 79749",32.714723,-101.014723,28-24-3,6/16/2014,6/18/2014,2014,330,Russell Southerland,West Texas Water Well Service,2713,
368271,New Well,Public Supply,U & F WSC,Scurry,"RFD, Snyder, 79549",32.711945,-101.000556,28-24-3,6/20/2014,6/23/2014,2014,316,Russell Southerland,West Texas Water Well Service,2713,
340420,New Well,Public Supply,Meers Engineering,Scurry,"Highway 208, Snyder, 79549",32.626667,-100.888611,29-17-9,6/26/2013,6/28/2013,2013,360,Jimmy Kitchens,"WildCat Services, LLC",57993,
320852,New Well,Public Supply,U & F Water Supply,Scurry,"1 mile south hwy 180, Snyder, 79549",32.709167,-101.014723,28-24-3,5/2/2012,5/4/2012,2012,282,Greg Stansell,AAW Services,58309,
554027,New Well,Public Supply,Millersview-Doole WSC,Concho,"13841 FM 1929, Millersview, 76862",31.492778,-99.722778,42-35-1,7/22/2020,8/3/2020,2020,160,JAMES ALLEN PARKER,HYDRO RESOURCES-MID CONTINENT INC,60461,202333
553078,New Well,Public Supply,Millersview-Doole WSC,Concho,"13841 FM 1929, Millersview, 76862",31.492767,-99.722526,42-35-1,8/26/2020,8/27/2020,2020,168,JAMES ALLEN PARKER,HYDRO RESOURCES-MID CONTINENT INC,60461,
360207,New Well,Public Supply,City Of Eden,Concho,"Warehouse Rd., Eden, 76387",31.230833,-99.8375,42-50-1,11/16/2013,4/21/2014,2014,4060,Scott W Stone,Leonard Water Services,54434,
456815,New Well,Public Supply,Reagan County Water Supply District,Reagan,"FM 33, Big Lake, 76929",31.46295,-101.465753,44-37-1,1/23/2017,7/24/2017,2017,460,Donald A Foster,Andrews & Foster Drilling Co,2023,
456807,New Well,Public Supply,Reagan County Water Supply District,Reagan,"FM 33, Big Lake, 76929",31.449117,-101.449664,44-37-5,6/5/2017,6/8/2017,2017,500,Donald A Foster,Andrews & Foster Drilling Co,2023,
456805,New Well,Public Supply,Reagan County Water Supply District,Reagan,"FM 33, Big Lake, 76929",31.456569,-101.442131,44-37-5,5/31/2017,6/2/2017,2017,500,Donald A Foster,Andrews & Foster Drilling Co,2023,
456804,New Well,Public Supply,Reagan County Water Supply District,Reagan,"FM 33, Big Lake, 76929",31.449253,-101.457525,44-37-5,6/9/2017,6/13/2017,2017,500,Donald A Foster,Andrews & Foster Drilling Co,2023,
456802,New Well,Public Supply,Reagan County Water Supply District,Reagan,"FM 33 Rocker B Ranch, Big Lake, 76929",31.441158,-101.460361,44-37-4,6/14/2017,6/17/2017,2017,500,Donald A Foster,Andrews & Foster Drilling Co,2023,
455553,New Well,Public Supply,Reagan County Water Supply District,Reagan,"FM 33, Big Lake, 76932",31.455469,-101.425592,44-37-5,5/10/2017,5/13/2017,2017,500,Donald A Foster,Andrews & Foster Drilling Co,2023,
455552,New Well,Public Supply,Reagan County Water Supply District,Reagan,"FM 33, Big Lake, 76929",31.456886,-101.4495,44-37-5,4/28/2017,5/1/2017,2017,500,Donald A Foster,Andrews & Foster Drilling Co,2023,
455550,New Well,Public Supply,Reagan County Water Supply District,Reagan,"FM 33, Big Lake, 76929",31.462997,-101.449739,44-37-2,5/17/2017,5/23/2017,2017,500,Donald A Foster,Andrews & Foster Drilling Co,2023,
455548,New Well,Public Supply,Reagan County Water Supply District,Reagan,"FM 33, Big Lake, 76929",31.476633,-101.465703,44-37-1,5/30/2017,6/3/2017,2017,500,Donald A Foster,Andrews & Foster Drilling Co,2023,
452558,New Well,Public Supply,Reagan County Water Supply District,Reagan,"FM 33, Big Lake, 76929",31.469553,-101.441731,44-37-2,5/15/2017,5/18/2017,2017,500,Donald A Foster,Andrews & Foster Drilling Co,2023,
452557,New Well,Public Supply,Reagan County Water Supply District,Reagan,"FM 33, Big Lake, 76929",31.476625,-101.449697,44-37-2,2/27/2017,3/16/2017,2017,460,Donald A Foster,Andrews & Foster Drilling Co,2023,
452554,New Well,Public Supply,Reagan County Water Supply District,Reagan,"FM 33, Big Lake, 76929",31.469725,-101.457731,44-37-2,3/27/2017,4/1/2017,2017,485,Donald A Foster,Andrews & Foster Drilling Co,2023,
452552,New Well,Public Supply,Reagan County Water Supply District,Reagan,"FM 33, Big Lake, 76929",31.476656,-101.457828,44-37-2,4/18/2017,4/25/2017,2017,460,Donald A Foster,Andrews & Foster Drilling Co,2023,
446369,New Well,Public Supply,Reagan County Water Supply District,Reagan,"FM 33 Rocker B Ranch, Big Lake, 76929",31.45586,-101.473819,44-37-4,8/22/2016,3/30/2017,2017,500,Donald A Foster,Andrews & Foster Drilling Co,2023,
446368,New Well,Public Supply,Reagan County Water Supply District,Reagan,"FM 33 Rocker B Ranch, Big Lake, 76929",31.469802,-101.465761,44-37-1,11/9/2016,3/29/2017,2017,500,Donald A Foster,Andrews & Foster Drilling Co,2023,
446367,New Well,Public Supply,Reagan County Water Supply District,Reagan,"FM 33 Rocker B Ranch, Big Lake, 76929",31.456079,-101.464704,44-37-4,10/19/2016,3/29/2017,2017,500,Donald A Foster,Andrews & Foster Drilling Co,2023,
446366,New Well,Public Supply,Reagan County Water Supply District,Reagan,"FM 33 Rocker B Ranch, Big Lake, 76929",31.449432,-101.465831,44-37-4,9/27/2016,3/28/2017,2017,500,Donald A Foster,Andrews & Foster Drilling Co,2023,
446364,New Well,Public Supply,Reagan County Water Supply District,Reagan,"FM 33 Rocker B Ranch, Big Lake, 76929",31.462978,-101.457729,44-37-2,11/1/2016,3/31/2017,2017,500,Donald A Foster,Andrews & Foster Drilling Co,2023,
446362,New Well,Public Supply,Reagan County Water Supply District,Reagan,"FM 33 Rocker B Ranch, Big Lake, 76929",31.455962,-101.457174,44-37-5,12/10/2016,3/31/2017,2017,500,Donald A Foster,Andrews & Foster Drilling Co,2023,
446359,New Well,Public Supply,Reagan County Water Supply District,Reagan,"FM 33 Rocker B Ranch, Big Lake, 76929",31.456113,-101.433556,44-37-5,9/8/2016,3/31/2017,2017,500,Donald A Foster,Andrews & Foster Drilling Co,2023,
408820,New Well,Public Supply,American Energy Partners,Reagan,"9115 N. State Hwy 137, Big Lake, 76932",31.358063,-101.503426,44-44-3,10/5/2015,10/5/2015,2015,402,Casey Bob Hutto,Case Drilling and Pump Service,58880,
391491,New Well,Public Supply,Laredo Petroleum,Reagan,"1451 Angle Rd, Garden City, 76932",31.631667,-101.498334,44-21-7,3/16/2015,3/18/2015,2015,400,Russell Southerland,West Texas Water Well Service,2713,
608721,New Well,Public Supply,Petra Firma,Tom Green,"FM 2335, Christoval, 76935",31.233056,-100.571111,43-52-2,4/25/2022,4/25/2022,2022,100,Bobby R Wilson,Aqua Drill,58462,
573467,New Well,Public Supply,Petra Firma,Tom Green,"FM 4135 Haciendas Ranch Subdivision, Christoval, 76935",31.238611,-100.561944,43-52-2,3/24/2021,3/25/2021,2021,180,Bobby R Wilson,Aqua Drill,58462,
573466,New Well,Public Supply,Petra Firma,Tom Green,"FM 2335 Hacienda Ranch Subdivision, Christoval, 76935",31.239722,-100.56,43-52-2,3/22/2021,3/23/2021,2021,200,Bobby R Wilson,Aqua Drill,58462,
561288,New Well,Public Supply,West Texas Boys Ranch,Tom Green,"10223 Boys Ranch Rd., San Angelo, 76904",31.333369,-100.600275,43-44-1,1/9/2020,1/9/2020,2020,65,Justin C Abel,Abel Water Systems,59930,204949
561283,New Well,Public Supply,West Texas Boys Ranch,Tom Green,"10223 Boys Ranch Rd., San Angelo, 76904",31.335419,-100.616528,43-44-1,8/14/2020,8/14/2020,2020,62,Justin C Abel,Abel Water Systems,59930,
561069,New Well,Public Supply,West Texas Boys Ranch,Tom Green,"10223 Boys Ranch Rd., San Angelo, 76904",31.33337,-100.600276,43-44-1,6/25/2020,6/27/2020,2020,105,Justin C Abel,Abel Water Systems,59930,
524851,New Well,Public Supply,Jensen Brothers,Tom Green,"8995 FM 2335 Jensen Brothers subdivision, Christoval, 76935",31.230833,-100.560556,43-52-2,10/1/2019,10/3/2019,2019,200,Bobby R Wilson,Aqua Drill,58462,
488105,New Well,Public Supply,Petra Firma Development Group,Tom Green,"FM 2335 Well located on David Jensen subdivision between Christoval and Knickerbocker., Christoval, 76932",31.228333,-100.559722,43-52-2,4/2/2018,4/5/2018,2018,160,Bobby R Wilson,Aqua Drill,58462,
486573,New Well,Public Supply,CONCHO RURAL WATER,Tom Green,"7730-7734 SANDPIPER WAY, GRAPE CREEK, 76901",31.584767,-100.5467,43-28-2,4/9/2018,4/9/2018,2018,125,Clark Abel,ABEL WATER SYSTEMS,2972,
432128,New Well,Public Supply,CARLSBAD FRESH WATER DIST. TOMGREEN COUNTY #1,Tom Green,"12253 US 87 N, CARLSBAD, 76934",31.618889,-100.663889,43-27-3,5/5/2016,7/20/2016,2016,86,Michael Carl Hoelscher,MICHAEL C HOELSCHER,2409,
428891,New Well,Public Supply,Tom Green County FWSD No 3,Tom Green,"Dove Creek Lane West, San Angelo, 76904",31.315944,-100.626514,43-43-6,6/22/2016,6/22/2016,2016,85,Clark Abel,ABEL WATER SYSTEMS,2972,
428835,New Well,Public Supply,Concho Rural Water,Tom Green,"E. Carlsbad Loop, Carlsbad, 76934",31.584101,-100.607144,43-28-1,6/24/2016,6/24/2016,2016,105,Clark Abel,ABEL WATER SYSTEMS,2972,
428832,New Well,Public Supply,Concho Rural Water,Tom Green,"E. Carlsbad Loop, Carlsbad, 76932",31.584217,-100.60725,43-28-1,5/24/2016,5/24/2016,2016,105,Clark Abel,ABEL WATER SYSTEMS,2972,
428831,New Well,Public Supply,Concho Rural Water,Tom Green,"E. Carlsbad Loop, Carlsbad, 76934",31.579471,-100.603515,43-28-4,5/13/2016,5/13/2016,2016,105,Clark Abel,ABEL WATER SYSTEMS,2972,
428830,New Well,Public Supply,Concho Rural Water,Tom Green,"E. Carlsbad Loop, Carlsbad, 76934",31.57943,-100.603967,43-28-4,5/12/2016,5/12/2016,2016,105,Clark Abel,ABEL WATER SYSTEMS,2972,
428829,New Well,Public Supply,Concho Rural Water,Tom Green,"Carlsbad Loop, Carlsbad, 76934",31.57898,-100.604179,43-28-4,5/11/2016,5/11/2016,2016,105,Clark Abel,ABEL WATER SYSTEMS,2972,
428828,New Well,Public Supply,Concho Rural Water,Tom Green,"Carlsbad Loop, Carlsbad, 76934",31.579333,-100.604709,43-28-4,5/10/2016,5/10/2016,2016,105,Clark Abel,ABEL WATER SYSTEMS,2972,
322592,Reconditioning,Public Supply,Mt. Carmel Hermitage,Tom Green,"3 mi. W of Christoval, Christoval,",31.154167,-100.541389,43-52-9,3/13/2013,3/13/2013,2013,115,Patrick B Lange,Lange Drilling Co. Inc.,2343,
204664,New Well,Public Supply,Gene Gully,Tom Green,"Hawk Ave, Wall,",31.377778,-100.296667,43-38-8,5/5/2006,5/5/2006,2006,180,Michael Carl Hoelscher,Michael C. Hoelscher,2409,
204662,New Well,Public Supply,Gene Gully,Tom Green,"Hawk Ave, Wall,",31.379722,-100.298056,43-38-8,5/4/2006,5/4/2006,2006,200,Michael Carl Hoelscher,Michael C. Hoelscher,2409,
204661,New Well,Public Supply,Gene Gully,Tom Green,"Hawk Ave, Wall,",31.381111,-100.297222,43-38-8,5/8/2006,5/8/2006,2006,180,Michael Carl Hoelscher,Michael C. Hoelscher,2409,
19483,New Well,Public Supply,City of Blanket,Brown,"FM 1465 in Blanket, CR 355 W 1 mi, S gate, Blanket, 76432",31.83,-98.805278,41-10-5,3/31/2003,4/17/2003,2003,442,Michael Wayne Gilliam,Michael Gilliam Consultant Services,54262,
16062,New Well,Public Supply,City of Blanket,Brown,"1.5 miles W CR355, S side white gate, Blanket, 76432",31.830555,-98.805001,41-10-5,11/18/2002,11/20/2002,2002,437,Michael Wayne Gilliam,Michael Gilliam Consultant Services,54262,
436114,New Well,Public Supply,City of Bronte,Coke,"1 mile south of Blackwell, Texas. 1 mile west of HWY 70, Blackwell,",32.068017,-100.315733,29-62-5,4/26/2016,4/29/2016,2016,325,Silas Solomon Jones,"Thunder Well Service, LLC",58804,
344815,New Well,Public Supply,City of Bronte,Coke,"1 Mile S. of Blackwell on Hwy 70, Blackwell,",32.064167,-100.32,29-62-5,10/9/2013,10/21/2013,2013,330,Ronny Keith,West Texas Water Well Service,4854,
344813,New Well,Public Supply,City of Bronte,Coke,"1 Mile S. of Blackwell on Hwy 70, Blackwell,",32.061112,-100.311945,29-62-5,10/24/2013,10/26/2013,2013,317,Ronny Keith,West Texas Water Well Service,4854,
50754,New Well,Public Supply,City of Bronte,Coke,"1 mi. East Hwy. 70 -.8 mile, Blackwell, 79506",32.078333,-100.296389,29-62-5,12/16/2003,12/31/2003,2003,285,Gideon Hall Ware,"Blackwell Water Well Serv., Inc.",2341,
50750,New Well,Public Supply,City of Bronte,Coke,"1 1/4 S. Hwy.70-Eastside, Blackwell, 79506",32.067222,-100.306667,29-62-5,12/2/2003,12/10/2003,2003,305,Gideon Hall Ware,"Blackwell Water Well Serv., Inc.",2341,
244164,New Well,Public Supply,Caprcorn Ridge Wind Farm/Nextera Energy,Sterling,"1/2 Mile N. 158 on Bird Lane, Sterling City, 76951",31.919722,-100.940556,43-01-5,1/27/2011,1/30/2011,2011,325,Ronny Keith,West Texas Water Well Service,4854,
522564,New Well,Public Supply,Crossland Construction,Glasscock,"Hwy 137 South, Stanton, 79782",31.979556,-101.731667,44-03-1,7/12/2019,8/12/2019,2019,80,Russell Langford,"Associated Well Services, Inc.",56062,202497
311330,New Well,Public Supply,pioneer nat rec,Glasscock,"cr 106, garden city,",31.686945,-101.731389,44-19-4,1/28/2013,1/31/2013,2013,250,Mike Tharp,AAW Services,55070,
287198,New Well,Public Supply,Pioneer,Glasscock,"East of Midkiff, Midland, 79706",31.682222,-101.732222,44-19-4,2/6/2012,2/22/2012,2012,280,Greg Stansell,AAW Services,58309,163751
287190,New Well,Public Supply,Pioneer,Glasscock,"East of Midkiff, Midland, 79706",31.685278,-101.731944,44-19-4,1/20/2012,1/26/2012,2012,260,Greg Stansell,AAW Services,58309,
605109,New Well,Public Supply,kent kwik,Midland,"east loop 250 and i 20, midland, 79705",32.030816,-101.987812,28-57-7,3/12/2022,3/12/2022,2022,103,Richard Todd Ashley,aquatech solutions,60765,
605105,New Well,Public Supply,kent kwik,Midland,"loop 250 and south i 20 scv. rd, midland, 79706",32.029951,-101.987234,28-57-7,3/11/2022,3/11/2022,2022,103,Richard Todd Ashley,aquatech solutions,60765,
600187,New Well,Public Supply,Stewart and Stevensons,Midland,"11120 West Hwy 80E, Odessa, 79765",31.918056,-102.230833,45-07-4,1/10/2022,3/11/2022,2022,117,Bill M Dubose Jr,"Dubose Drilling, Inc",3161,
600156,New Well,Public Supply,WATER RUNNER,Midland,"11906 JORDY RD, MIDLAND, 79707",31.969953,-102.264489,45-06-3,2/28/2022,3/2/2022,2022,175,Russell Southerland,WEST TEXAS WATER WELL SERVICE,2713,
540448,New Well,Public Supply,ENDEAVOR MAN CAMP,Midland,"1/4 S OF CR 180 ON 349, MIDLAND,",31.852472,-102.043833,45-16-2,3/17/2020,3/23/2020,2020,170,Ronny Keith,WEST TEXAS WATER WELL SERVICE,4854,
537460,New Well,Public Supply,ENDEAVOR MAN CAMP,Midland,"1/4 S OF CR 180 ON 349, MIDLAND,",31.851139,-102.045194,45-16-2,2/28/2020,3/3/2020,2020,170,Ronny Keith,WEST TEXAS WATER WELL SERVICE,4854,
537452,New Well,Public Supply,ENDEAVOR MAN CAMP,Midland,"1/4 S OF CR 180 ON 349, MIDLAND,",31.852742,-102.046306,45-16-2,2/24/2020,2/27/2020,2020,165,Ronny Keith,WEST TEXAS WATER WELL SERVICE,4854,
537126,New Well,Public Supply,"Midland( S349)DTP,LLC.",Midland,"5308 SH 349, Midland, 79706",31.93008,-102.06155,45-08-5,2/17/2020,2/18/2020,2020,90,Wesley G Hudnall,Permian H2O Solutions,59661,
536145,New Well,Public Supply,ENDEAVOR MAN CAMP,Midland,"1/4 S OF CR 180 ON 349, MIDLAND,",31.851889,-102.045778,45-16-2,1/27/2020,1/30/2020,2020,166,Ronny Keith,WEST TEXAS WATER WELL SERVICE,4854,
535653,New Well,Public Supply,"Midland (1150)DTP,LLC C/O GBT Realty",Midland,"5202 N CR 1150 on appox. 1 mile north or 1150, Midland, 79710",32.0681,-102.0326,27-64-6,1/15/2020,1/16/2020,2020,90,Wesley G Hudnall,Permian H2O Solutions,59661,
506826,New Well,Public Supply,Compass Well Service,Midland,"10013 CR 157 From the intersection of business Rd 20 and FM 1788, Go south for 2.8 mi. Turn east on West County Road 157 and go 0.4 miles. Turn south onto property for 573 ft. to location., Midland,",31.86958,-102.19652,45-15-2,2/25/2019,2/26/2019,2019,95,Edward Bryan,Straub Corporation,58165,
496118,New Well,Public Supply,Dollar General,Midland,"scr 1210, midland, 79706",31.95705,-102.1046,45-08-4,11/20/2018,11/21/2018,2018,150,Mike Tharp,tucker water well svc,55070,
486835,New Well,Public Supply,PARSLEY ENERGY,Midland,"1703 ECR 120, MIDLAND, 79706",31.966111,-102.041444,45-08-3,7/23/2018,7/24/2018,2018,115,Russell Southerland,WEST TEXAS WATER WELL SERVICE,2713,
484514,New Well,Public Supply,HORSESHOE LODGES,Midland,"8005 EAST HWY 80, MIDLAND, 79706",32.057247,-101.957217,28-57-5,5/14/2018,6/21/2018,2018,120,Canon Kutscher,"Hydro Resources Mid-Continent, Inc.",58773,
444973,New Well,Public Supply,BASIC ENERGY,Midland,"5805 E HWY 80, MIDLAND, 79705",32.039558,-101.990833,28-57-7,1/25/2017,1/25/2017,2017,107,Russell Southerland,WEST TEXAS WATER WELL SERVICE,2713,
413789,New Well,Public Supply,OCCIDENTAL OIL & GAS,Midland,"HWY 349 FROM THE INTERSECTION OF MOCKINGBIRD LANE & BIG SPRING ST DRIVING NORTH WEST ON BIG SPRING ST APPROX 1.45 MILE, TURN WEST ONTO LEASE ROAD DRIVE APPROX 0.31 MILE, TURN SOUTH WALK APPROX 0.07 MILE., MIDLAND, 79707",32.0775,-102.095833,27-64-4,12/21/2015,12/22/2015,2015,100,Bryan A Mehlhoff,"MARK'S WATER WELL SERVICE, INC",59300,
398860,New Well,Public Supply,Pioneer Natural Resources,Midland,"Dockum #2,",32.033334,-102.003889,27-64-9,5/18/2015,5/30/2015,2015,1440,Casey Bob Hutto,Case Drilling and Pump Service,58880,
396827,New Well,Public Supply,ETech Environmental  & Safety Solutions,Midland,"West CR 100, Midland, 79708",31.939167,-102.266667,45-06-6,5/7/2015,5/12/2015,2015,145,Martin Straub,Straub Corporation,4653,
388494,New Well,Public Supply,Greater Gardendale Water Supply Corp.,Midland,"Gardendale, 79758",31.988056,-102.283611,45-06-3,1/28/2015,2/2/2015,2015,140,David Gann,West Texas Water Well Service,4855,
388492,New Well,Public Supply,Greater Gardendale Water Supply Corp.,Midland,"Gardendale, 79758",31.986111,-102.282778,45-06-3,2/3/2015,2/4/2015,2015,140,David Gann,West Texas Water Well Service,4855,
386622,New Well,Public Supply,Permian Lodging,Midland,"I-20 & Farm To Market Rd., Midland, 79706",31.966944,-102.048334,45-08-2,12/4/2014,12/5/2014,2014,130,Luann Hutto,"T - Bar Drilling,Inc.",58828,
386615,New Well,Public Supply,Permian Lodging,Midland,"I-20 & Farm To Market, Midland, 79706",31.966667,-102.033334,45-08-3,12/3/2014,12/3/2014,2014,130,Luann Hutto,"T - Bar Drilling, Inc.",58828,
386611,New Well,Public Supply,Permian Lodging,Midland,"I-20 & Farm To Market Road 1180, Midland, 79706",31.967222,-102.046945,45-08-2,12/1/2014,12/3/2014,2014,168,Luann Hutto,"T - Bar Drilling, Inc.",58828,
382901,New Well,Public Supply,Lozoya Construction,Midland,"3219 NCR 1106, Midland, 79706",32.063334,-101.951112,28-57-5,10/27/2014,10/28/2014,2014,80,Jimmy Kitchens,"AAW Services, LLC",57993,
371923,New Well,Public Supply,Greenwood ISD,Midland,"SCR 1110 & ECR 120, Midland, 79706",31.988611,-101.936111,44-01-2,7/14/2014,7/17/2014,2014,137,Rory B Roach,West Texas Water Well Service,54815,
371920,New Well,Public Supply,Greenwood ISD,Midland,"SCR 1110 & ECR 120, Midland, 79706",31.989445,-101.936389,44-01-2,7/18/2014,7/23/2014,2014,137,Rory B Roach,West Texas Water Well Service,54815,
370789,New Well,Public Supply,Thomas Petroleum,Midland,"N. I-20 Svc. Rd., Midland, 79765",31.910278,-102.223889,45-07-7,6/19/2014,6/20/2014,2014,110,Russell Southerland,West Texas Water Well Service,2713,
368257,New Well,Public Supply,Thomas Petroleum,Midland,"N 1-20 Svc. Rd., Midland, 79765",31.910278,-102.223889,45-07-7,6/19/2014,6/20/2014,2014,110,Russell Southerland,West Texas Water Well Service,2713,
356928,New Well,Public Supply,Uncles Store,Midland,"Hwy 307, Greenwood,",32.012223,-101.968333,28-57-7,3/14/2014,3/14/2014,2014,170,Tom H Shelton,Dt Boring/Oasis,59339,
349563,New Well,Public Supply,Pioneer Natural Resources,Midland,"Midland,",32.036667,-102.006945,27-64-9,11/7/2013,11/21/2013,2013,1411,Rory B Roach,West Texas Water Well Service,54815,
347106,New Well,Public Supply,John Crane Production Solutions,Midland,"6308 West IH-20, Midland, 79707",31.946111,-102.152223,45-07-6,11/8/2013,11/13/2013,2013,126,Jimmy Kitchens,"AAW Services, LLC",57993,
320034,New Well,Public Supply,Key Energy,Midland,"12400 I-20, Midland, 79706",31.898056,-102.248334,45-07-7,5/2/2013,5/2/2013,2013,116,Rory B Roach,West Texas Water Well Service,54815,
318093,New Well,Public Supply,dollar general,Midland,"fm 307, greenwood,",32.011389,-101.969444,28-57-7,5/3/2013,5/6/2013,2013,178,Mike Tharp,AAW Services,55070,
316583,New Well,Public Supply,stepping stone ministries,Midland,"2400 elkins rd, midland,",32.036111,-102.020278,27-64-9,4/22/2013,4/22/2013,2013,83,Mike Tharp,AAW Services,55070,
315246,New Well,Public Supply,"Chevron U.S.A., Inc.",Midland,"6507 S. C.R. 1270, Midland, 79706",31.883611,-102.187222,45-07-8,3/19/2013,3/19/2013,2013,120,Rory B Roach,West Texas Water Well Service,54815,
314795,New Well,Public Supply,Opti Blend,Midland,"6215 CR 112, Midland, 79706",31.946945,-102.153056,45-07-6,3/27/2013,3/28/2013,2013,130,Rory B Roach,West Texas Water Well Service,54815,
311040,New Well,Public Supply,Lariat Services,Midland,"13416 W. I-20 E, Odessa, 79706",31.889445,-102.260278,45-06-9,2/1/2013,2/1/2013,2013,131,Rory B Roach,West Texas Water Well Service,54815,
297375,New Well,Public Supply,"Water Runner, Inc.",Midland,"5112 N. CR 1150, Midland, 79705",32.067222,-102.026944,27-64-6,8/6/2012,8/6/2012,2012,76,Rory B Roach,West Texas Water Well Service,54815,
297374,New Well,Public Supply,"Water Runner, Inc.",Midland,"5112 N. CR 1150, Midland, 79705",32.0675,-102.026944,27-64-6,8/2/2012,8/3/2012,2012,76,Rory B Roach,West Texas Water Well Service,54815,
227193,New Well,Public Supply,Dollar General Store,Midland,"3712 S. Hwy 349, Midland, 79706",31.953334,-102.068333,45-08-5,8/12/2010,8/17/2010,2010,121,Jimmy Kitchens,"AAW Services, LLC",57993,
202433,New Well,Public Supply,Enertech,Midland,"6300 W. I-20, Midland, 79706",31.946945,-102.151112,45-07-6,12/2/2009,12/4/2009,2009,137,Ronny Keith,West Texas Water Well Service,4854,
134827,New Well,Public Supply,BASIC ENERGY,Midland,"5805 E.HWY 80, MIDLAND, 79701",32.039445,-101.990834,28-57-7,11/6/2007,12/28/2007,2007,100,Darrin S Stark Sr,EAGLE CORRISION CONTROL,54891,
129488,New Well,Public Supply,Univ. of Texas - Permian Basin,Midland,"1788 & 191 - S.E. Corner, Midland,",31.971389,-102.249445,45-07-1,2/3/2005,2/4/2005,2005,150,Ronny Keith,West Texas Water Well Service,4854,
87520,New Well,Public Supply,Greater Gardendale Water Supply Corporat,Midland,,31.988334,-102.278055,45-06-3,6/4/2006,6/8/2006,2006,152,Mike Tharp,West Texas Water Well Service,55070,
87517,New Well,Public Supply,Greater Gardendale Water Supply Corporat,Midland,,31.990278,-102.276389,45-06-3,5/31/2006,6/2/2006,2006,142,Mike Tharp,West Texas Water Well Service,55070,
87515,New Well,Public Supply,Greater Gardendale Water Supply Corporat,Midland,,31.990556,-102.278889,45-06-3,6/5/2006,6/6/2006,2006,142,Mike Tharp,West Texas Water Well Service,55070,
87514,New Well,Public Supply,Greater Gardendale Water Supply Corporat,Midland,"Midland,",31.985,-102.274722,45-06-3,5/19/2006,5/21/2006,2006,152,Mike Tharp,West Texas Water Well Service,55070,
87512,New Well,Public Supply,Greater Gardendale Water Supply Corporat,Midland,"Midland,",31.983611,-102.277222,45-06-3,5/21/2006,5/24/2006,2006,152,Mike Tharp,West Texas Water Well Service,55070,
87511,New Well,Public Supply,Greater Gardendale Water Supply Corporat,Midland,"Midland,",31.986667,-102.275278,45-06-3,5/23/2006,6/3/2006,2006,150,Mike Tharp,West Texas Water Well Service,55070,
74369,New Well,Public Supply,UNCLE'S CONVEINCE STORE #130205,Midland,"4921 N. LOOP 250, MIDLAND, 79706",32.051667,-102.011667,27-64-6,12/22/2005,12/23/2005,2005,92,Darrin S Stark Sr,KITCHENS CORROSION CONTROL,54891,
74368,New Well,Public Supply,UNCLE'S CONVEINCE STORE #130205,Midland,"4921 N. LOOP 250, MIDLAND, 79706",32.051112,-102.006945,27-64-6,11/18/2005,11/21/2005,2005,91,Darrin S Stark Sr,KITCHENS CORROSION CONTROL,54891,
37340,New Well,Public Supply,Paul Wilhite,Midland,"CR 120, Midland, 79706",32.008056,-101.875555,28-57-9,11/26/2003,11/26/2003,2003,173,R Darrell Crass,"Darrell Crass Drilling Company, Inc.",2752,
33881,New Well,Public Supply,Greenwood ISD,Midland,"1 1/2 miles South, Greenwood,",32.023333,-101.891945,28-57-9,6/11/2003,6/13/2003,2003,167,Rory B Roach,West Texas Water Well Service,54815,
33875,New Well,Public Supply,Greenwood ISD,Midland,"1 1/2 miles South, Greenwood,",32.021111,-101.891945,28-57-9,6/17/2003,6/19/2003,2003,164,Rory B Roach,West Texas Water Well Service,54815,
31418,New Well,Public Supply,Paul Wilhite,Midland,"CR 120, Midland, 79706",32.008056,-101.875555,28-57-9,11/26/2003,11/26/2003,2003,173,R Darrell Crass,"Darrell Crass Drilling Company, Inc.",2752,
588793,New Well,Public Supply,David Postor,Ector,"7151 N.Faudree rd, Odessa, 79768",31.93331,-102.31268,45-06-5,10/26/2021,10/26/2021,2021,160,Wesley G Hudnall,Permian H2O Solutions,59661,
563241,New Well,Public Supply,VIA Real Estate LLC.,Ector,"6715 Andrews HWY, Odessa TX., 79762",31.908768,-102.393747,45-05-9,12/15/2020,12/15/2020,2020,160,Wesley G Hudnall,Permian H2O Solutions,59661,
535830,New Well,Public Supply,Gardendale 158 DPT LLC. C/O GBT Realty Corp,Ector,"5586 hwy.158, Gardendale, 79758",32.037739,-102.368667,27-62-7,1/30/2020,1/31/2020,2020,120,Wesley G Hudnall,Permian H2O Solutions,59661,
497489,New Well,Public Supply,SLB RV PARK,Ector,"4097 SKEEN AVE, ODESSA,",31.756075,-102.543694,45-12-8,12/3/2018,12/4/2018,2018,195,Russell Southerland,WEST TEXAS WATER WELL SERVICE,2713,
492045,New Well,Public Supply,Oscar Urquidi,Ector,"From Intersection of S Grant ave (HWY 385) and S Crane Ave Travel north on S Grant Ave (HWY 385) for 0.11 miles then travel east on Sterling Park Rd 0.32 miles then travel south west on Lorraine Ave for 0.2 miles to location to the west, Odessa,",31.808714,-102.356292,45-14-4,8/8/2018,8/8/2018,2018,140,Casey Bob Hutto,Santa Rosa Well Service,58880,
397690,New Well,Public Supply,Dollar General,Ector,"241 N Knox, Odessa, 79763",31.839445,-102.502778,45-12-3,2/18/2015,2/18/2015,2015,130,Bryan A Mehlhoff,Marks Water Well,59300,
388739,New Well,Public Supply,DOLLAR GENERAL,Ector,"241 N KNOX, ODESSA, 79763",31.839445,-102.502778,45-12-3,2/18/2015,2/18/2015,2015,130,Bryan A Mehlhoff,"MARKS WATER WELL COMPANY, INC",59300,
386838,New Well,Public Supply,DOLLAR GENERAL,Ector,"241 N KNOX, ODESSA, 79763",31.808334,-102.505001,45-12-6,1/15/2015,1/17/2015,2015,130,Bryan A Mehlhoff,"MARKS WATER WELL COMPANY, INC",59300,101025
386837,New Well,Public Supply,DOLLAR GENERAL,Ector,"7575 GRANT AVE, ODESSA, 79761",31.787778,-102.366944,45-14-7,1/28/2015,1/28/2015,2015,140,Bryan A Mehlhoff,"MARKS WATER WELL COMPANY, INC",59300,
375531,New Well,Public Supply,CMT Storage,Ector,"7101 Faudree Rd, Odessa,",31.931111,-102.311667,45-06-5,9/11/2014,9/11/2014,2014,155,Ronald Ray Wheeler,Wheeler Drillling,1540,
369597,New Well,Public Supply,Iron Horse Ranch,Ector,"16531 W. IH 20, Odessa,",31.758334,-102.546945,45-12-8,6/26/2014,6/26/2014,2014,210,Ronald Ray Wheeler,Wheeler Drilling,1540,
369595,New Well,Public Supply,Iron Horse Ranch,Ector,"16531 W. IH 20, Odessa,",31.758056,-102.5475,45-12-8,6/25/2014,6/25/2014,2014,210,Ronald Ray Wheeler,Wheeler Drilling,1540,
367666,New Well,Public Supply,Reliabilty Consulting Management Group,Ector,"101 Solo Rd, Midland, 79762",31.881389,-102.293611,45-06-8,6/3/2014,6/3/2014,2014,118,Russell Southerland,West Texas Water Well Service,2713,
318192,New Well,Public Supply,Zimmerman Construction,Ector,"3006 So. Hwy 385, Odessa, 79766",31.798611,-102.365834,45-14-4,4/30/2013,4/30/2013,2013,134,Rory B Roach,West Texas Water Well Service,54815,
318188,New Well,Public Supply,Zimmerman Construction,Ector,"3006 So. Hwy 385, Odessa, 79766",31.798334,-102.367778,45-14-4,4/29/2013,4/29/2013,2013,133,Rory B Roach,West Texas Water Well Service,54815,
318186,New Well,Public Supply,Zimmerman Construction,Ector,"3006 So. Hwy 385, Odessa, 79766",31.798056,-102.368333,45-14-4,4/26/2013,4/26/2013,2013,134,Rory B Roach,West Texas Water Well Service,54815,
272119,New Well,Public Supply,Weatherford International,Ector,"8866 W. Loop 338, Odessa, 79764",31.934722,-102.435,45-05-5,11/9/2011,11/9/2011,2011,167,Rory B Roach,West Texas Water Well Service,54815,
224500,New Well,Public Supply,Dollar General,Ector,"100 W. Yukon, Odessa, 79764",31.910834,-102.494445,45-05-7,7/1/2010,7/2/2010,2010,160,Ronny Keith,West Texas Water Well Service,4854,
183477,New Well,Public Supply,Waste Control Specialists,Andrews,"9998 W. State Hwy. 176, Andrews, 79714",31.738889,-102.335834,45-22-1,5/29/2009,5/29/2009,2009,80,David Gann,West Texas Water Well Service,4855,
526455,New Well,Public Supply,CITY OF COLORADO CITY,Mitchell,"COUNTY ROAD 404, COLORADO CITY,",32.398722,-100.756929,29-34-9,9/17/2019,9/23/2019,2019,174,Taylor E Mobley Jr,LEONARD WATER SERVICES,59293,
520882,New Well,Public Supply,CITY OF COLORADO CITY,Mitchell,"COUNTY ROAD 404, COLORADO CITY,",32.398772,-100.757322,29-34-9,7/18/2019,7/29/2019,2019,175,Taylor E Mobley Jr,LEONARD WATER SERVICES,59293,190049
428943,New Well,Public Supply,Mitchell County Utilities,Mitchell,"131 west 5th Street, Colorado City, 79512",32.381002,-101.018625,28-40-9,6/12/2016,6/22/2016,2016,400,Russell R Bowles,Layne,59540,
428939,New Well,Public Supply,Mitchell County Utilities,Mitchell,"131 West 5th Street, Colorado City, 79512",32.37885,-101.02002,28-40-9,5/16/2016,6/9/2016,2016,400,Russell R Bowles,Layne,59540,
428893,New Well,Public Supply,Mitchell County Utilities,Mitchell,"131 West 5th Street, Colorado City, 79512",32.380768,-101.02052,28-40-9,5/4/2016,5/8/2016,2016,400,Russell R Bowles,Layne,59540,
416777,New Well,Public Supply,CITY OF COLORADO CITY,Mitchell,"CR 406, COLORADO CITY,",32.385233,-100.736094,29-35-7,2/17/2016,2/19/2016,2016,195,Taylor E Mobley Jr,LEONARD WATER SERVICES,59293,
365097,New Well,Public Supply,CITY OF COLORADO CITY,Mitchell,"CR 412, COLORADO CITY, 79512",32.371111,-100.743056,29-43-1,5/13/2014,5/15/2014,2014,168,Taylor E Mobley Jr,LEONARD WATER SERVICES,59293,
365093,New Well,Public Supply,CITY OF COLORADO CITY,Mitchell,"FM 644 SOUTH, COLORADO CITY, 79512",32.383611,-100.707223,29-35-8,5/7/2014,5/9/2014,2014,200,Taylor E Mobley Jr,LEONARD WATER SERVICES,59293,
316308,New Well,Public Supply,Lone Wolf,Mitchell,,32.380278,-101.020278,28-40-9,4/9/2013,4/10/2013,2013,530,John M Choate,Choate Well Service,2568,
316275,New Well,Public Supply,Lone Wolf,Mitchell,,32.304445,-101.024167,28-48-6,3/6/2013,3/8/2013,2013,620,John M Choate,Choate Well Service,2568,
316268,New Well,Public Supply,Lone Wolf,Mitchell,,32.376389,-101.018611,28-40-9,2/28/2013,3/1/2013,2013,530,John M Choate,Choate Well Service,2568,
283680,New Well,Public Supply,City of Colorado City,Mitchell,"CR 406, Colorado City, 79512",32.376944,-100.746667,29-35-7,4/9/2012,4/12/2012,2012,176,Scott W Stone,Leonard Water Services,54434,
283677,New Well,Public Supply,City of Colorado City,Mitchell,"CR 406, Colorado City, 79512",32.380555,-100.735834,29-35-7,4/4/2012,4/6/2012,2012,185,Scott W Stone,Leonard Water Services,54434,
282341,New Well,Public Supply,City of Colorado City,Mitchell,"CR 404, Colorado City, 79512",32.393889,-100.761945,29-34-9,3/23/2012,3/27/2012,2012,177,Scott W Stone,LEONARD WATER SERVICES,54434,
166265,New Well,Public Supply,Mitchell County Utility,Mitchell,"Mitchell County Utility, Colorado City, 79512",32.408056,-100.774722,29-34-9,1/12/2009,1/16/2009,2009,250,John M Choate,Choate Well Service Inc,2568,
85923,New Well,Public Supply,Mitchell County Utility,Mitchell,"Colorado City, 79512",32.409445,-100.7775,29-34-9,6/1/2006,6/5/2006,2006,280,John M Choate,Choate Well Service Inc,2568,
455240,New Well,Public Supply,City of Forsan,Howard,"Rex Avenue, Forsan, 79732",32.113561,-101.365656,28-62-1,5/4/2017,5/8/2017,2017,285,Donald A Foster,Andrews & Foster Drilling Co,2023,
300501,New Well,Public Supply,CITY OF FORSAN,Howard,"WELL FIELD, FORSAN, 79733",32.110001,-101.364723,28-62-1,8/15/2012,8/25/2012,2012,285,Clark Abel,"T-BAR DRILLING, INC.",2972,
209790,New Well,Public Supply,Sid Richardson Carbon Co,Howard,"Big Spring, 79720",32.340834,-101.370555,28-46-1,12/19/2009,1/13/2010,2010,100,John M Choate,Choate Well Service Inc,2568,
209787,New Well,Public Supply,Sid Richardson Carbon Co,Howard,"Big Spring, 79720",32.341667,-101.371111,28-46-1,12/12/2009,1/10/2010,2010,130,John M Choate,Choate Well Service Inc,2568,
129055,New Well,Public Supply,Sid Richardson Carbon Co.,Howard,"Walker Place, Big Spring, 79720",32.329722,-101.372778,28-46-4,11/11/2007,11/12/2007,2007,140,John M Choate,Choate Well Service Inc,2568,
129054,New Well,Public Supply,Sid Richardson Carbon Co.,Howard,"Walker Place, Big Spring, 79720",32.329722,-101.372778,28-46-4,11/20/2007,11/22/2007,2007,160,John M Choate,Choate Well Service Inc,2568,
598987,New Well,Public Supply,Rattler Midstream LP,Martin,"3857 County Rd D2701 From the intersection of CR D2701 and CR D3800 go 0.55 miles north on CR D2701. Turn west for 0.47 miles. Turn north for 0.07 miles to location., Tarzan, 79783",32.345856,-102.00505,27-48-3,3/4/2022,3/4/2022,2022,160,John B Steward,Wildcat Services LLC,59400,
522562,New Well,Public Supply,Crossland Construction,Martin,"2251 CR 3301, Lenorah, 79749",32.269944,-101.864917,28-42-7,7/10/2019,8/5/2019,2019,132,Russell Langford,"Associated Well Services, Inc.",56062,
228721,New Well,Public Supply,Martin County Fresh Water District,Martin,"Stanton,",32.271667,-101.82,28-42-8,12/4/2007,12/5/2007,2007,91,Gene Wheeler,Wheeler Drilling Co.,2355,
228720,New Well,Public Supply,Martin County Fresh Water District,Martin,"3499 CR B 3100, Stanton,",32.270555,-101.828889,28-42-8,12/3/2007,12/4/2007,2007,98,Gene Wheeler,Wheeler Drilling Co.,2355,
41628,New Well,Public Supply,Martin Co. Water Dist.,Martin,"3499 CRB 3100, Stanton, 79782",32.2675,-101.828889,28-42-8,10/21/2002,10/21/2002,2002,118,Gene Wheeler,Wheeler Drilling & Pump,2355,
41624,New Well,Public Supply,Martin Co. Water Dist.,Martin,"3499 CRB 3100, Stanton, 79782",32.273889,-101.831111,28-42-8,10/20/2002,10/20/2002,2002,120,Gene Wheeler,Wheeler Drilling & Pump Co.,2355,
41615,New Well,Public Supply,Martin Co. Water Dist.,Martin,"3499 CRB3100, Stanton, 79782",32.270278,-101.828611,28-42-8,10/22/2002,10/22/2002,2002,118,Gene Wheeler,Wheeler Drilling & Pumping Co.,2355,
